City_ID,City,Country,Lat,Lng,Max Temp,Humidity,Cloudiness,Wind Speed,Current Description
0,Kodiak,US,57.79,-152.4072,44.11,76,75,19.57,broken clouds
1,Butaritari,KI,3.0707,172.7902,81.46,79,88,13.35,light rain
2,Narsaq,GL,60.9167,-46.05,43.02,79,65,2.15,broken clouds
3,Lalmohan,BD,22.3384,90.7419,81.37,81,72,8.99,broken clouds
4,Avarua,CK,-21.2078,-159.775,82.45,74,20,5.75,few clouds
5,Atuona,PF,-9.8,-139.0333,78.31,81,100,12.73,overcast clouds
6,Exaplatanos,GR,40.9772,22.125,56.21,94,98,1.99,overcast clouds
7,Bonoua,CI,5.2741,-3.595,83.82,89,78,4.12,light rain
8,Fare,PF,-16.7,-151.0167,80.96,72,7,9.24,clear sky
9,Nikolayevsk-Na-Amure,RU,53.1406,140.73,36.05,87,99,3.22,overcast clouds
10,Mar Del Plata,AR,-38.0023,-57.5575,53.87,75,100,18.99,overcast clouds
11,Busselton,AU,-33.65,115.3333,62.2,81,68,0.43,broken clouds
12,Thompson,CA,55.7435,-97.8558,28.56,86,100,14.97,overcast clouds
13,Ushuaia,AR,-54.8,-68.3,42.46,70,20,10.36,few clouds
14,Yellowknife,CA,62.456,-114.3525,43.32,52,0,15.01,clear sky
15,Bluff,NZ,-46.6,168.3333,59.81,77,29,12.39,scattered clouds
16,Kapaa,US,22.0752,-159.319,82.38,76,40,18.41,scattered clouds
17,Berlevag,NO,70.8578,29.0864,17.4,72,91,9.28,overcast clouds
18,Masvingo,ZW,-20.0637,30.8277,53.42,95,19,4.76,few clouds
19,Mataura,NZ,-46.1927,168.8643,59.49,72,13,4.18,few clouds
20,Cherskiy,RU,68.75,161.3,28.45,85,16,11.72,few clouds
21,Hilo,US,19.7297,-155.09,81.28,82,75,12.66,broken clouds
22,Jamestown,US,42.097,-79.2353,56.95,92,100,10.36,overcast clouds
23,Rikitea,PF,-23.1203,-134.9692,76.46,70,20,5.48,few clouds
24,Grindavik,IS,63.8424,-22.4338,39.67,81,0,2.3,clear sky
25,Mogadishu,SO,2.0371,45.3438,82.4,78,100,14.58,moderate rain
26,Hithadhoo,MV,-0.6,73.0833,85.33,74,100,17.47,overcast clouds
27,Codrington,AU,-38.2667,141.9667,64.09,66,100,12.1,overcast clouds
28,Hobart,AU,-42.8794,147.3294,63.05,68,75,6.91,broken clouds
29,Bredasdorp,ZA,-34.5322,20.0403,55.15,94,53,4.16,broken clouds
30,Souillac,MU,-20.5167,57.5167,71.98,94,20,1.14,few clouds
31,Marathon,US,44.9,-89.7668,47.73,90,100,12.66,light rain
32,Praia,CV,14.9215,-23.5087,70.34,78,20,13.8,few clouds
33,Puerto Baquerizo Moreno,EC,-0.9,-89.6,72.7,86,76,6.51,broken clouds
34,Aklavik,CA,68.2191,-135.0107,39.06,84,67,14.92,broken clouds
35,Kahului,US,20.8947,-156.47,80.62,73,40,20.71,scattered clouds
36,Kavaratti,IN,10.5669,72.642,84.06,71,86,9.01,overcast clouds
37,Barrow,US,71.2906,-156.7887,19.42,93,100,16.11,overcast clouds
38,Andra,RU,62.5147,65.8878,29.41,96,100,13.62,snow
39,Hermanus,ZA,-34.4187,19.2345,58.08,86,57,9.86,broken clouds
40,Westport,US,41.1415,-73.3579,62.6,49,0,10.36,clear sky
41,Kasulu,TZ,-4.5767,30.1025,62.38,95,99,3.15,light rain
42,Chokurdakh,RU,70.6333,147.9167,28.54,91,61,10.25,broken clouds
43,Airai,TL,-8.9266,125.4092,63.79,72,70,3.85,broken clouds
44,Lorengau,PG,-2.0226,147.2712,82.45,79,91,3.0,overcast clouds
45,Nioro,GM,13.35,-15.75,82.47,32,39,6.78,scattered clouds
46,Ancud,CL,-41.8697,-73.8203,50.32,91,41,4.14,scattered clouds
47,Bilma,NE,18.6853,12.9164,91.15,11,42,7.87,scattered clouds
48,Batagay-Alyta,RU,67.8006,130.4114,20.17,93,100,6.73,light snow
49,Carutapera,BR,-1.195,-46.02,76.3,92,100,4.74,moderate rain
50,Nikolskoye,RU,59.7035,30.7861,41.72,91,59,5.32,broken clouds
51,Nanakuli,US,21.3906,-158.1547,84.15,60,75,9.22,broken clouds
52,Empalme,MX,27.9667,-110.8167,89.35,42,0,16.11,clear sky
53,Upernavik,GL,72.7868,-56.1549,0.75,88,50,3.22,scattered clouds
54,Pamanukan,ID,-6.2842,107.8106,79.0,83,92,3.89,overcast clouds
55,Sisimiut,GL,66.9395,-53.6735,25.72,76,34,6.29,scattered clouds
56,Punta Arenas,CL,-53.15,-70.9167,41.11,81,0,11.5,clear sky
57,Srandakan,ID,-7.9386,110.2506,79.66,86,99,3.42,overcast clouds
58,Palasa,IN,18.7667,84.4167,80.49,86,88,4.38,overcast clouds
59,Moctezuma,MX,29.8,-109.6667,87.15,10,0,19.77,clear sky
60,Los Llanos De Aridane,ES,28.6585,-17.9182,62.35,78,0,11.5,clear sky
61,Puerto Colombia,CO,10.9878,-74.9547,84.29,83,100,4.56,overcast clouds
62,Arraial Do Cabo,BR,-22.9661,-42.0278,78.66,78,0,9.22,clear sky
63,San Patricio,US,28.017,-97.5169,86.18,74,88,17.63,overcast clouds
64,Vila Franca Do Campo,PT,37.7167,-25.4333,66.2,92,33,3.02,scattered clouds
65,Talakan,RU,50.3167,130.3667,49.19,44,97,3.0,overcast clouds
66,Kloulklubed,PW,7.0419,134.2556,79.3,75,100,14.97,overcast clouds
67,Iqaluit,CA,63.7506,-68.5145,28.13,79,40,8.05,scattered clouds
68,Vardo,NO,70.3705,31.1107,27.86,66,94,5.55,overcast clouds
69,Cape Town,ZA,-33.9258,18.4232,64.9,79,0,5.01,clear sky
70,Brandon,US,27.9378,-82.2859,82.72,84,100,16.11,light intensity drizzle
71,Port Alfred,ZA,-33.5906,26.891,57.18,92,2,8.48,clear sky
72,Klaksvik,FO,62.2266,-6.589,40.12,72,89,22.91,overcast clouds
73,Neryungri,RU,56.6709,124.6491,33.08,92,100,1.83,light snow
74,Ponta Do Sol,PT,32.6667,-17.1,65.71,74,0,4.18,clear sky
75,Skelleftea,SE,64.7507,20.9528,44.01,55,75,16.11,broken clouds
76,Coquimbo,CL,-29.9533,-71.3436,56.93,88,0,5.75,clear sky
77,Vila Velha,BR,-20.3297,-40.2925,80.55,73,75,11.5,broken clouds
78,Katsina,NG,12.9894,7.6006,87.17,18,26,8.3,scattered clouds
79,Sao Filipe,CV,14.8961,-24.4956,72.59,75,0,8.72,clear sky
80,Labuhan,ID,-6.8844,112.2051,80.51,83,99,7.56,overcast clouds
81,Puerto Ayora,EC,-0.7393,-90.3518,74.48,82,56,6.44,broken clouds
82,Dillon,US,34.4166,-79.3712,80.85,60,99,11.32,overcast clouds
83,Portland,US,45.5234,-122.6762,68.67,52,75,7.0,broken clouds
84,Dalbandin,PK,28.8947,64.4101,76.57,21,26,5.12,scattered clouds
85,Sur,OM,22.5667,59.5289,81.99,61,0,4.94,clear sky
86,Dutse,NG,11.7594,9.3392,86.0,37,82,10.13,broken clouds
87,Fortuna,US,40.5982,-124.1573,62.92,72,0,14.97,clear sky
88,Vedasandur,IN,10.5333,77.95,80.02,67,100,3.22,overcast clouds
89,Ostersund,SE,63.1792,14.6357,41.61,60,20,8.05,few clouds
90,Torbay,CA,47.6666,-52.7314,43.75,89,75,6.91,broken clouds
91,Santa Cruz,BO,-17.8,-63.1667,80.65,69,40,8.05,scattered clouds
92,Greenwood,US,34.1668,-82.1165,78.96,57,0,9.22,clear sky
93,Esna,EG,25.2934,32.554,78.82,16,20,6.35,few clouds
94,Coihaique,CL,-45.5752,-72.0662,47.01,81,40,5.75,scattered clouds
95,Shimanovsk,RU,52.0,127.7,48.79,32,99,7.58,overcast clouds
96,Bambous Virieux,MU,-20.3428,57.7575,73.22,94,20,1.14,few clouds
97,Norman Wells,CA,65.282,-126.8329,51.84,40,40,21.85,scattered clouds
98,Montrose,US,38.4166,-108.2673,62.01,13,96,21.72,overcast clouds
99,Abu Zabad,SD,12.35,29.25,85.66,21,100,7.2,overcast clouds
100,Waki,JP,34.0667,134.15,59.02,36,100,4.76,overcast clouds
101,Kamenka,RU,51.3223,42.7678,37.99,58,11,4.65,few clouds
102,Virginia Beach,US,36.8529,-75.978,77.02,64,0,10.36,clear sky
103,Albany,US,42.6001,-73.9662,63.88,37,100,3.42,overcast clouds
104,Esperance,AU,-33.8667,121.9,51.64,63,2,7.36,clear sky
105,Huarmey,PE,-10.0681,-78.1522,66.83,85,76,8.05,broken clouds
106,Nizhniy Kuranakh,RU,58.8353,125.4869,33.06,80,100,14.05,light snow
107,Fukue,JP,32.6881,128.8419,62.96,55,0,4.61,clear sky
108,Georgetown,MY,5.4112,100.3354,78.75,88,20,3.44,thunderstorm
109,Zhuzhou,CN,27.8333,113.15,53.73,78,98,1.59,overcast clouds
110,Broken Hill,AU,-31.95,141.4333,58.71,67,0,4.61,clear sky
111,Qasigiannguit,GL,68.8193,-51.1922,25.05,84,5,3.18,clear sky
112,Boende,CD,-0.2167,20.8667,70.63,94,91,2.55,overcast clouds
113,Kozhva,RU,65.1073,57.0459,24.53,91,65,5.91,light snow
114,Vila,PT,42.0304,-8.1588,45.48,85,24,1.72,few clouds
115,Hofn,IS,64.2539,-15.2082,34.81,59,100,13.35,overcast clouds
116,Port Elizabeth,ZA,-33.918,25.5701,56.32,92,0,2.3,clear sky
117,Sibolga,ID,1.7427,98.7792,75.94,88,100,3.69,overcast clouds
118,Provideniya,RU,64.3833,-173.3,29.37,59,14,12.64,few clouds
119,Saskylakh,RU,71.9167,114.0833,14.5,91,50,5.84,scattered clouds
120,Weyburn,CA,49.6668,-103.8511,57.42,26,87,13.8,overcast clouds
121,Marataizes,BR,-21.0433,-40.8244,74.77,81,6,8.9,clear sky
122,Cayenne,GF,4.9333,-52.3333,81.09,1,75,4.61,broken clouds
123,Mpika,ZM,-11.8343,31.4529,54.73,82,9,8.03,clear sky
124,Abu Samrah,SY,35.3029,37.1841,58.51,81,0,9.55,clear sky
125,Victoria,HK,22.2855,114.1577,63.25,94,100,7.0,light rain
126,Fayaoue,NC,-20.65,166.5333,78.17,85,62,11.86,broken clouds
127,Acarau,BR,-2.8856,-40.12,79.23,83,45,12.44,scattered clouds
128,Kenora,CA,49.8167,-94.4337,38.37,93,100,11.5,light intensity drizzle
129,Verkhnyaya Inta,RU,65.9811,60.3094,22.73,83,87,6.58,overcast clouds
130,Skjervoy,NO,70.0311,20.9714,33.8,85,97,7.78,light snow
131,Davidson,US,36.1501,-86.7833,79.25,30,20,10.36,few clouds
132,Ambikapur,IN,23.1167,83.2,74.37,50,13,6.78,few clouds
133,Evensk,RU,61.95,159.2333,30.06,76,30,2.33,scattered clouds
134,Pitimbu,BR,-7.4706,-34.8086,77.59,84,18,8.16,few clouds
135,Caxito,AO,-8.5785,13.6643,72.28,97,65,1.68,broken clouds
136,Perth,AU,-31.9333,115.8333,55.67,96,0,0.0,clear sky
137,Havre-Saint-Pierre,CA,50.2334,-63.5986,37.76,81,100,10.36,overcast clouds
138,Saldanha,ZA,-33.0117,17.9442,59.05,75,5,7.56,clear sky
139,Vestmannaeyjar,IS,63.4427,-20.2734,44.92,59,100,1.7,overcast clouds
140,Khatanga,RU,71.9667,102.5,16.23,87,82,10.54,broken clouds
141,Lompoc,US,34.6391,-120.4579,72.57,67,0,28.99,clear sky
142,Port-Cartier,CA,50.0334,-66.8654,53.71,89,48,6.6,scattered clouds
143,Opuwo,NA,-18.0607,13.84,71.58,39,42,5.17,scattered clouds
144,Kudahuvadhoo,MV,2.6708,72.8944,85.44,74,94,21.97,overcast clouds
145,Oistins,BB,13.0667,-59.5333,78.89,83,20,11.5,few clouds
146,Bhadrachalam,IN,17.6667,80.8833,81.75,81,29,7.96,scattered clouds
147,Vaini,TO,-21.2,-175.2,82.56,83,75,13.8,broken clouds
148,Bowmore,US,34.9421,-79.3031,80.51,88,75,10.36,broken clouds
149,Mayor Pablo Lagerenza,PY,-19.9309,-60.7718,77.56,52,10,7.07,clear sky
150,Nanortalik,GL,60.1432,-45.2371,37.45,84,100,4.41,overcast clouds
151,Byron Bay,AU,-28.65,153.6167,71.49,57,33,11.97,scattered clouds
152,Yar-Sale,RU,66.8333,70.8333,6.46,89,14,6.13,few clouds
153,Panama City,PA,8.9936,-79.5197,84.15,82,40,6.91,scattered clouds
154,Carnarvon,AU,-24.8667,113.6333,60.87,72,0,9.22,clear sky
155,East London,ZA,-33.0153,27.9116,61.02,79,0,7.49,clear sky
156,Hongjiang,CN,27.11,109.9956,59.79,76,98,2.51,overcast clouds
157,Buala,SB,-8.145,159.5921,84.11,72,99,4.85,light rain
158,Maceio,BR,-9.6658,-35.7353,76.44,83,75,6.91,broken clouds
159,Kilindoni,TZ,-7.9139,39.6668,79.66,78,61,19.44,moderate rain
160,Sassandra,CI,4.95,-6.0833,79.83,86,75,6.49,broken clouds
161,Mokhotlong,LS,-29.2894,29.0675,42.71,76,0,1.54,clear sky
162,Xiaoweizhai,CN,26.1903,107.5125,54.97,86,100,4.83,overcast clouds
163,Kirakira,SB,-10.4544,161.9205,82.11,79,100,9.08,light rain
164,Komsomolskiy,UZ,40.4272,71.7189,68.72,52,82,6.91,broken clouds
165,Saint George,US,37.1041,-113.5841,77.59,15,0,25.32,clear sky
166,Nampula,MZ,-15.1165,39.2666,66.15,94,75,6.91,broken clouds
167,Okato,NZ,-39.2,173.8833,67.17,79,100,15.99,overcast clouds
168,Severo-Kurilsk,RU,50.6789,156.125,35.98,86,77,9.06,broken clouds
169,New Norfolk,AU,-42.7826,147.0587,62.92,72,86,1.99,overcast clouds
170,Suntar,RU,62.1444,117.6319,26.28,60,57,13.02,broken clouds
171,Manaure,CO,11.7751,-72.4445,83.98,73,100,3.98,overcast clouds
172,Talnakh,RU,69.4865,88.3972,20.21,95,100,6.67,light snow
173,Canakkale,TR,40.0833,26.8333,50.58,91,83,8.99,broken clouds
174,Ola,RU,59.5833,151.2833,43.14,83,43,6.69,scattered clouds
175,Norsup,VU,-16.0667,167.3833,83.97,68,100,1.01,overcast clouds
176,Meulaboh,ID,4.1363,96.1285,76.66,89,100,4.16,overcast clouds
177,Lagoa,PT,39.05,-27.9833,60.98,82,9,2.57,clear sky
178,Waingapu,ID,-9.6567,120.2641,82.89,76,62,15.55,broken clouds
179,Collie,AU,-33.3667,116.15,55.11,87,34,0.74,scattered clouds
180,Mana,GF,5.6592,-53.7767,77.23,86,84,10.51,broken clouds
181,Puerto Leguizamo,CO,-0.1934,-74.7819,76.19,81,98,2.13,overcast clouds
182,Gari,RU,59.4307,62.3497,27.54,92,80,9.28,broken clouds
183,Honiara,SB,-9.4333,159.95,83.19,80,99,3.74,overcast clouds
184,Lata,PT,40.1629,-8.3327,57.07,86,51,6.22,broken clouds
185,Kissidougou,GN,9.1848,-10.0999,74.86,78,66,3.4,broken clouds
186,Mookane,BW,-23.688,26.6595,61.92,70,30,9.46,scattered clouds
187,Hambantota,LK,6.1241,81.1185,80.69,82,94,14.45,overcast clouds
188,Fort Nelson,CA,58.8053,-122.7002,53.19,37,40,14.97,scattered clouds
189,Roma,US,43.2128,-75.4557,66.34,30,0,9.22,clear sky
190,Xam Nua,LA,20.4197,104.0439,60.04,87,91,2.28,overcast clouds
191,Havoysund,NO,70.9963,24.6622,28.63,78,93,23.82,overcast clouds
192,San Quintin,MX,30.4833,-115.95,63.37,70,1,16.6,clear sky
193,Teguise,ES,29.0605,-13.564,62.82,77,20,20.71,few clouds
194,Kailua,US,21.4022,-157.7394,84.18,69,20,17.27,few clouds
195,Tasiilaq,GL,65.6145,-37.6368,26.76,57,88,4.92,overcast clouds
196,Kavieng,PG,-2.5744,150.7967,85.1,70,28,9.98,scattered clouds
197,Ketchikan,US,55.3422,-131.6461,45.07,93,100,12.66,moderate rain
198,Collipulli,CL,-37.95,-72.4333,46.83,89,39,5.55,scattered clouds
199,Paka,MY,4.6374,103.4368,79.29,86,100,3.89,overcast clouds
200,Chuy,UY,-33.6971,-53.4616,51.66,80,0,7.83,clear sky
201,Tiksi,RU,71.6872,128.8694,16.92,84,95,10.38,overcast clouds
202,Daru,PG,-9.0763,143.2092,81.3,85,47,11.21,scattered clouds
203,Betma,IN,22.6833,75.6167,81.43,52,6,16.73,clear sky
204,Aguimes,ES,27.9054,-15.4461,63.66,68,20,24.0,few clouds
205,Mayo,US,38.8876,-76.5119,60.75,89,40,6.91,scattered clouds
206,Kavadarci,MK,41.4331,22.0119,50.11,83,78,3.24,broken clouds
207,Alta Floresta,BR,-9.8756,-56.0861,76.32,81,39,2.75,scattered clouds
208,Meadow Lake,US,34.8014,-106.5436,85.3,3,1,24.45,clear sky
209,Karratha,AU,-20.7377,116.8463,79.18,51,100,11.95,overcast clouds
210,Biak,ID,-0.9131,122.8766,80.49,77,47,5.3,scattered clouds
211,Kamina,CD,-8.7386,24.9906,64.58,94,99,2.42,overcast clouds
212,Marawi,PH,7.9986,124.2928,72.34,93,99,0.31,overcast clouds
213,Muros,ES,42.7762,-9.0603,51.55,86,29,5.26,scattered clouds
214,Kerema,PG,-7.9631,145.7785,83.55,69,61,1.9,broken clouds
215,Solnechnyy,RU,50.7214,136.6319,35.98,80,89,5.01,overcast clouds
216,Saint-Philippe,RE,-21.3585,55.7679,73.22,84,2,2.91,clear sky
217,Tilichiki,RU,60.4667,166.1,24.87,84,17,4.88,few clouds
218,Kutum,SD,14.2,24.6667,80.8,10,58,7.31,broken clouds
219,Puerto Escondido,MX,15.85,-97.0667,86.83,70,40,5.75,scattered clouds
220,Dikson,RU,73.5069,80.5464,8.1,95,100,10.92,overcast clouds
221,Sinnamary,GF,5.3833,-52.95,77.95,84,53,11.83,broken clouds
222,Isangel,VU,-19.55,169.2667,80.83,84,96,8.68,overcast clouds
223,Castro,BR,-24.7911,-50.0119,63.16,88,62,2.48,broken clouds
224,Mandalgovi,MN,45.7625,106.2708,55.94,23,9,3.83,clear sky
225,Cabo San Lucas,MX,22.8909,-109.9124,88.61,27,20,12.66,few clouds
226,Bubaque,GW,11.2833,-15.8333,77.7,71,35,11.1,scattered clouds
227,Inhambane,MZ,-23.865,35.3833,68.74,83,19,8.61,few clouds
228,Kaitangata,NZ,-46.2817,169.8464,60.13,68,16,5.28,few clouds
229,Kruisfontein,ZA,-34.0033,24.7314,50.88,90,0,4.54,clear sky
230,Bireun,ID,5.203,96.7009,78.19,81,100,4.38,overcast clouds
231,Kaitong,CN,44.8135,123.15,48.56,49,3,1.99,clear sky
232,Kushima,JP,31.4583,131.2333,64.06,61,100,3.02,overcast clouds
233,Svetlogorsk,BY,52.6333,29.7333,43.39,93,68,5.35,broken clouds
234,Beyla,GN,8.6833,-8.6333,71.74,85,97,2.04,overcast clouds
235,Hovd,MN,48.0056,91.6419,52.86,20,68,8.48,broken clouds
236,Murupara,NZ,-38.4667,176.7,63.41,56,99,2.15,overcast clouds
237,Mehamn,NO,71.0357,27.8492,25.25,79,88,11.39,overcast clouds
238,Husavik,IS,66.0449,-17.3389,27.57,75,100,9.26,overcast clouds
239,Bethel,US,41.3712,-73.414,62.65,50,100,5.01,overcast clouds
240,Norrtalje,SE,59.758,18.705,44.02,59,94,8.86,overcast clouds
241,Turtas,RU,58.9417,69.1325,33.22,83,99,5.57,overcast clouds
242,Ixtapa,MX,20.7,-105.2,78.22,73,75,16.11,broken clouds
243,Te Anau,NZ,-45.4167,167.7167,57.85,72,14,4.74,few clouds
244,Senanga,ZM,-16.1167,23.2667,65.19,52,25,5.28,scattered clouds
245,Mahebourg,MU,-20.4081,57.7,73.26,94,20,1.14,few clouds
246,Bella Vista,US,36.4295,-94.2316,74.32,36,0,5.75,clear sky
247,Teacapan,MX,22.55,-105.75,79.47,52,43,7.94,scattered clouds
248,Saint-Ambroise,CA,48.5501,-71.3324,58.6,36,83,9.22,broken clouds
249,Dunedin,NZ,-45.8742,170.5036,62.8,67,6,4.0,clear sky
250,Shitkino,RU,56.3703,98.3543,41.36,78,100,11.39,overcast clouds
251,Katsuura,JP,35.1333,140.3,57.45,64,100,12.03,overcast clouds
252,Bandarbeyla,SO,9.4942,50.8122,82.81,81,47,8.32,scattered clouds
253,Caravelas,BR,-17.7125,-39.2481,74.5,79,0,5.59,clear sky
254,Ribeira Grande,PT,38.5167,-28.7,62.44,83,21,3.15,few clouds
255,Goderich,CA,43.7501,-81.7165,55.72,82,100,13.8,overcast clouds
256,Ormara,PK,25.2088,64.6357,81.28,77,0,15.41,clear sky
257,Tsiroanomandidy,MG,-18.7667,46.0333,58.69,81,2,3.13,clear sky
258,Santa Maria,BR,-29.6842,-53.8069,63.7,94,100,4.61,mist
259,Nelson Bay,AU,-32.7167,152.15,66.09,91,28,1.99,scattered clouds
260,Bengkulu,ID,-3.8004,102.2655,76.6,86,95,4.18,overcast clouds
261,Kaeo,NZ,-35.1,173.7833,67.32,83,83,8.77,broken clouds
262,Linares,CL,-35.85,-71.6,51.03,75,98,3.96,overcast clouds
263,Necochea,AR,-38.5473,-58.7368,51.69,62,99,9.13,overcast clouds
264,Vitim,RU,59.4511,112.5578,27.48,72,77,8.63,broken clouds
265,Pimenta Bueno,BR,-11.6725,-61.1936,74.64,91,43,1.92,scattered clouds
266,Sorong,ID,-0.8833,131.25,82.2,79,87,7.27,overcast clouds
267,Usinsk,RU,65.9939,57.5281,19.38,90,94,8.25,overcast clouds
268,Viloco,BO,-16.95,-67.55,45.37,86,20,3.76,few clouds
269,Aloleng,PH,16.1307,119.7824,83.44,69,89,5.23,overcast clouds
270,Qaanaaq,GL,77.484,-69.3632,7.12,72,19,6.17,few clouds
271,Longyearbyen,SJ,78.2186,15.6401,12.04,67,75,3.44,light snow
272,Avera,US,33.194,-82.5271,81.91,65,81,7.02,broken clouds
273,Stantsionno-Oyashinskiy,RU,55.4664,83.8245,42.75,92,100,7.85,moderate rain
274,Omsukchan,RU,62.5333,155.8,27.9,88,85,7.67,overcast clouds
275,Tabou,CI,4.423,-7.3528,80.83,81,51,7.36,broken clouds
276,Tuktoyaktuk,CA,69.4541,-133.0374,37.4,75,75,13.8,broken clouds
277,Yumen,CN,40.2833,97.2,52.77,14,16,1.92,few clouds
278,Yulara,AU,-25.2406,130.9889,60.64,59,100,6.91,overcast clouds
279,Samana,DO,19.2056,-69.3369,73.36,87,100,5.84,overcast clouds
280,Galle,LK,6.0367,80.217,81.52,84,95,13.31,overcast clouds
281,Ahipara,NZ,-35.1667,173.1667,68.18,62,97,7.43,overcast clouds
282,Buraydah,SA,26.326,43.975,77.45,15,0,8.81,clear sky
283,Pangnirtung,CA,66.1451,-65.7125,27.73,97,100,5.06,light snow
284,Okha,RU,53.5739,142.9478,32.79,94,100,6.71,overcast clouds
285,Ilulissat,GL,69.2167,-51.1,24.82,54,37,1.14,scattered clouds
286,Dukat,RU,62.55,155.55,28.33,89,76,6.02,broken clouds
287,Twentynine Palms,US,34.1356,-116.0542,90.14,9,0,7.0,clear sky
288,Wahlern,CH,46.8281,7.3532,44.98,62,17,2.53,few clouds
289,Ontario,US,34.0633,-117.6509,81.68,49,0,16.11,clear sky
290,Port Blair,IN,11.6667,92.75,78.84,94,40,2.3,mist
291,Bananeiras,BR,-6.75,-35.6333,68.61,96,35,7.47,scattered clouds
292,Lenger,KZ,42.183,69.8839,63.84,46,44,7.16,scattered clouds
293,Elizabeth City,US,36.2946,-76.2511,75.22,76,0,8.05,clear sky
294,Nipawin,CA,53.3668,-104.0009,44.64,61,75,11.5,broken clouds
295,Murgab,TM,37.4966,61.9714,67.87,64,100,9.22,overcast clouds
296,Lavrentiya,RU,65.5833,-171.0,19.06,72,22,12.01,few clouds
297,Geraldton,AU,-28.7667,114.6,48.61,93,0,4.61,clear sky
298,Nechi,CO,8.0942,-74.7757,79.47,87,84,2.28,broken clouds
299,Almenara,BR,-16.1836,-40.6944,70.3,75,8,3.24,light rain
300,Paragominas,BR,-2.9667,-47.4833,73.65,97,97,3.47,heavy intensity rain
301,Maracas,BR,-13.4411,-40.4308,62.87,84,8,6.31,clear sky
302,Shache,CN,38.4167,77.2406,61.72,21,9,6.4,clear sky
303,Amga,RU,60.8953,131.9608,42.12,66,3,11.74,clear sky
304,Namibe,AO,-15.1961,12.1522,73.94,68,50,8.63,scattered clouds
305,Beloha,MG,-25.1667,45.05,65.19,82,2,3.53,clear sky
306,Doha,QA,25.2867,51.5333,80.58,67,0,2.3,clear sky
307,Saint-Augustin,CA,51.226,-58.6502,33.53,84,100,19.8,snow
308,Nadym,RU,65.5333,72.5167,20.16,96,100,4.36,overcast clouds
309,Qiongshan,CN,20.0058,110.3542,66.18,94,75,6.71,light rain
310,San Jose De Rio Tinto,HN,14.9333,-85.7,89.17,80,98,4.83,overcast clouds
311,San Angelo,US,31.4638,-100.437,82.89,54,75,16.11,broken clouds
312,Arteaga,MX,18.4667,-102.4167,80.1,20,49,7.87,scattered clouds
313,Hasaki,JP,35.7333,140.8333,55.8,55,100,16.87,overcast clouds
314,Okhotsk,RU,59.3833,143.3,36.45,80,30,7.25,scattered clouds
315,Russell,US,32.3502,-85.1999,80.2,65,20,5.75,few clouds
316,Vestmanna,FO,62.1564,-7.1664,38.32,70,75,14.97,broken clouds
317,Zaozhuang,CN,34.8647,117.5542,66.16,26,0,5.03,clear sky
318,Luganville,VU,-15.5333,167.1667,81.7,77,100,0.43,overcast clouds
319,Douglas,US,41.3,-96.167,63.59,55,0,5.75,clear sky
320,Mishelevka,RU,52.8575,103.1719,56.23,56,99,2.01,overcast clouds
321,Bilibino,RU,68.0546,166.4372,22.06,58,33,2.93,scattered clouds
322,Kongoussi,BF,13.3258,-1.5347,90.48,34,56,3.58,broken clouds
323,Adrar,MR,20.5022,-10.0711,78.28,15,0,11.48,clear sky
324,Mashhad,IR,36.297,59.6062,60.94,94,75,0.0,broken clouds
325,Sao Raimundo Nonato,BR,-9.0153,-42.6994,75.72,52,32,1.34,scattered clouds
326,Turukhansk,RU,65.8167,87.9833,24.55,92,56,10.83,broken clouds
327,Letlhakeng,BW,-24.0944,25.0298,61.61,58,2,6.58,clear sky
328,College,US,64.8569,-147.8028,54.28,33,100,9.22,overcast clouds
329,Oktyabrskiy,RU,54.4815,53.471,32.88,63,0,3.65,clear sky
330,Chinhoyi,ZW,-17.3667,30.2,57.02,86,39,5.84,scattered clouds
331,Tuatapere,NZ,-46.1333,167.6833,59.11,75,12,7.23,few clouds
332,Baruun-Urt,MN,46.6806,113.2792,55.53,44,54,11.99,broken clouds
333,Sabang,ID,5.8933,95.3214,83.55,74,100,18.59,overcast clouds
334,Arlit,NE,18.7369,7.3853,84.38,12,1,9.69,clear sky
335,Mabai,CN,23.0128,104.4508,48.81,83,98,7.0,overcast clouds
336,Samarai,PG,-10.6167,150.6667,82.56,74,46,8.77,scattered clouds
337,Starup,DK,55.241,9.535,42.67,80,0,1.14,clear sky
338,Arcachon,FR,44.5875,-1.0519,57.25,88,0,5.75,clear sky
339,Pointe Michel,DM,15.25,-61.3833,75.49,74,58,12.41,broken clouds
340,Cubara,CO,7.0008,-72.1085,72.32,96,94,3.27,overcast clouds
341,Clara,IE,53.3425,-7.6139,50.4,97,93,0.49,overcast clouds
342,Bud,US,39.447,-86.1758,65.62,73,97,13.53,overcast clouds
343,Bambanglipuro,ID,-7.95,110.2833,79.56,86,97,3.47,overcast clouds
344,Rutland,US,43.6167,-73.0162,64.38,29,0,3.44,clear sky
345,Dongning,CN,44.0622,131.1207,46.04,63,46,8.12,scattered clouds
346,Ewa Beach,US,21.3156,-158.0072,84.15,57,75,23.02,broken clouds
347,Athabasca,CA,54.7169,-113.2854,45.01,75,100,15.66,overcast clouds
348,Shingu,JP,33.7333,135.9833,62.31,33,99,2.35,overcast clouds
349,Ibra,OM,22.6906,58.5334,74.32,53,0,1.74,clear sky
350,Poum,NC,-20.2333,164.0167,78.87,77,10,2.57,clear sky
351,Serenje,ZM,-13.2325,30.2352,55.56,76,2,11.54,clear sky
352,Mount Isa,AU,-20.7333,139.5,74.97,60,10,8.05,clear sky
353,Qianguo,CN,45.1171,124.8568,49.66,47,12,6.6,few clouds
354,Beyneu,KZ,45.3167,55.2,60.28,48,7,16.44,clear sky
355,Polunochnoye,RU,60.8697,60.4153,21.79,91,31,4.99,scattered clouds
356,Hirado,JP,33.3597,129.5531,60.35,47,100,12.03,overcast clouds
357,Rawson,AR,-43.3002,-65.1023,50.81,63,100,9.44,overcast clouds
358,Shimoda,JP,34.6667,138.95,60.1,75,100,9.42,overcast clouds
359,Itoman,JP,26.1247,127.6694,64.42,86,75,10.36,light rain
360,Concordia,AR,-31.393,-58.0209,59.79,67,63,3.0,broken clouds
361,Pevek,RU,69.7008,170.3133,18.25,70,97,8.05,overcast clouds
362,La Ronge,CA,55.1001,-105.2842,37.65,52,20,6.91,few clouds
363,Gao,ML,16.6362,1.637,85.35,13,57,12.28,broken clouds
364,Fairbanks,US,64.8378,-147.7164,54.3,33,20,9.22,few clouds
365,Chimore,BO,-16.9833,-65.1333,73.54,88,100,3.13,overcast clouds
366,Sidi Ali,DZ,36.0998,0.4206,63.21,46,37,1.3,scattered clouds
367,Olinda,BR,-8.0089,-34.8553,78.53,89,75,4.61,broken clouds
368,Apiai,BR,-24.5094,-48.8425,61.9,87,33,3.31,scattered clouds
369,Lugo,ES,43.0,-7.5,50.92,95,95,2.24,overcast clouds
370,Tanete,ID,-3.9443,119.7848,80.55,82,73,8.12,broken clouds
371,Christchurch,NZ,-43.5333,172.6333,65.32,79,99,6.91,overcast clouds
372,Pemangkat,ID,1.1667,108.9667,78.51,88,99,5.86,overcast clouds
373,Lovozero,RU,68.005,35.0117,16.79,94,81,5.53,broken clouds
374,Bathsheba,BB,13.2167,-59.5167,79.41,83,20,11.5,few clouds
375,Winneba,GH,5.3511,-0.6231,80.38,84,97,6.17,overcast clouds
376,Manta,EC,-0.95,-80.7333,78.58,78,75,8.05,broken clouds
377,Kalmunai,LK,7.4167,81.8167,79.02,83,96,3.74,overcast clouds
378,Mobai,SL,7.9944,-10.7511,74.89,92,100,1.88,light rain
379,Sao Jose Da Coroa Grande,BR,-8.8978,-35.1478,77.22,86,64,6.11,broken clouds
380,Ambilobe,MG,-13.2,49.05,72.39,97,27,2.95,scattered clouds
381,Touros,BR,-5.1989,-35.4608,79.47,82,94,10.92,overcast clouds
382,Davenport,US,41.5236,-90.5776,53.47,71,100,20.71,overcast clouds
383,Hobyo,SO,5.3505,48.5268,84.07,72,100,17.58,light rain
384,San Policarpo,PH,12.1791,125.5072,82.58,74,98,7.78,overcast clouds
385,Puerto Suarez,BO,-18.95,-57.8,82.78,39,81,3.29,broken clouds
386,Half Moon Bay,US,37.4636,-122.4286,78.89,69,0,24.16,haze
387,Shaoyang,CN,27.2315,111.4525,58.26,75,88,2.64,overcast clouds
388,Makakilo City,US,21.3469,-158.0858,82.72,58,75,23.02,broken clouds
389,Almaznyy,RU,48.0448,40.045,41.41,62,84,7.02,broken clouds
390,Griffith,US,41.5284,-87.4237,52.39,74,100,13.8,overcast clouds
391,Constitucion,CL,-35.3333,-72.4167,53.82,76,100,7.96,overcast clouds
392,Neiafu,TO,-18.65,-173.9833,86.68,79,75,6.91,broken clouds
393,Atar,MR,20.5169,-13.0499,83.98,12,0,10.04,clear sky
394,Clyde River,CA,70.4692,-68.5914,8.83,85,100,13.8,light snow
395,Urucui,BR,-7.2294,-44.5561,79.34,59,21,3.27,few clouds
396,Gravdal,NO,68.1214,13.5031,36.01,83,95,19.1,light rain
397,Naifaru,MV,5.4444,73.3657,85.14,75,69,16.91,broken clouds
398,Oliva,ES,38.9197,-0.1194,63.66,85,90,5.99,overcast clouds
399,Camacha,PT,33.0833,-16.3333,60.22,77,40,11.5,scattered clouds
400,Casablanca,MA,33.5928,-7.6192,59.22,83,0,6.24,clear sky
401,Cockburn Town,TC,21.4612,-71.1419,76.96,78,75,17.27,broken clouds
402,Korla,CN,41.7597,86.1469,58.41,28,13,3.87,few clouds
403,Leningradskiy,RU,69.3833,178.4167,17.69,75,48,9.06,scattered clouds
404,Prado,BR,-17.3411,-39.2208,75.51,81,0,6.49,clear sky
405,Guerrero Negro,MX,27.9769,-114.0611,66.0,65,0,17.98,clear sky
406,Mecca,SA,21.4267,39.8261,81.46,67,2,1.23,clear sky
407,Ejura,GH,7.3856,-1.3562,76.78,78,58,2.95,broken clouds
408,Cidreira,BR,-30.1811,-50.2056,64.83,72,100,7.23,overcast clouds
409,San Andres,CO,12.5847,-81.7006,75.22,100,100,2.3,light intensity drizzle
410,Machesney Park,US,42.3472,-89.039,49.98,82,100,16.11,overcast clouds
411,Klyuchi,RU,52.2667,79.1667,61.05,82,99,7.23,light rain
412,Lander,US,42.833,-108.7307,54.0,55,100,10.36,overcast clouds
413,Dzhebariki-Khaya,RU,62.2167,135.8,40.78,75,77,5.08,broken clouds
414,Maniitsoq,GL,65.4167,-52.9,25.52,79,83,8.84,broken clouds
415,Zemio,CF,5.0314,25.1361,68.22,95,90,3.65,overcast clouds
416,Port Lincoln,AU,-34.7333,135.8667,62.24,77,0,11.45,clear sky
417,Yokaichiba,JP,35.7,140.55,55.72,71,75,6.91,broken clouds
418,Veshenskaya,RU,49.6303,41.7334,39.74,59,5,6.29,clear sky
419,Bonavista,CA,48.6499,-53.1147,37.22,96,100,4.43,overcast clouds
420,Nybro,SE,56.7446,15.9071,38.05,82,20,4.99,few clouds
421,Tautira,PF,-17.7333,-149.15,79.52,74,37,7.65,light rain
422,Sioux Lookout,CA,50.1001,-91.917,39.27,93,100,3.44,mist
423,Port Hardy,CA,50.6996,-127.4199,53.78,66,100,13.8,overcast clouds
424,Maroantsetra,MG,-15.4333,49.7333,75.06,90,97,1.57,overcast clouds
425,Utete,TZ,-7.986,38.758,70.57,94,43,2.3,scattered clouds
426,Sabzevar,IR,36.2126,57.6819,63.07,66,86,2.21,light rain
427,Egvekinot,RU,66.3167,-179.1667,17.24,63,18,4.79,few clouds
428,Tekirdag,TR,40.978,27.5085,49.35,92,24,9.46,few clouds
429,Vanderhoof,CA,54.0166,-124.0198,54.27,55,100,3.69,overcast clouds
430,Aripuana,BR,-9.1667,-60.6333,74.91,90,85,1.81,overcast clouds
431,Sao Joao Da Barra,BR,-21.6403,-41.0511,76.6,82,7,12.88,clear sky
432,Bardiyah,LY,31.7561,25.0865,68.52,60,100,20.18,overcast clouds
433,Carmen,MX,18.6333,-91.8333,87.84,70,20,13.8,few clouds
434,Kerman,IR,30.2832,57.0788,57.06,47,20,4.61,few clouds
435,Itaquyry,PY,-24.9333,-55.2167,68.68,96,14,2.46,few clouds
436,Hauterive,FR,46.0901,3.4459,47.16,93,55,1.21,broken clouds
437,Namatanai,PG,-3.6667,152.4333,84.85,68,33,7.16,scattered clouds
438,Charlestown,AU,-32.95,151.6667,65.82,94,32,1.01,scattered clouds
439,Ormond Beach,US,29.2858,-81.0559,77.29,73,0,11.5,clear sky
440,San Carlos De Bariloche,AR,-41.1456,-71.3082,42.55,81,40,3.44,scattered clouds
441,Snezhnogorsk,RU,69.1933,33.2531,26.38,93,96,3.85,overcast clouds
442,Rocha,UY,-34.4833,-54.3333,53.55,75,16,6.87,few clouds
443,Akhtanizovskaya,RU,45.32,37.1,50.47,87,78,12.73,broken clouds
444,Yashkul,RU,46.1711,45.3435,56.05,43,96,17.31,overcast clouds
445,Guerrero,MX,17.6667,-100.0,84.6,29,81,5.35,broken clouds
446,Roebourne,AU,-20.7833,117.1333,80.1,50,99,15.61,overcast clouds
447,Rundu,NA,-17.9333,19.7667,64.02,47,47,3.44,scattered clouds
448,Hami,CN,42.8,93.45,62.89,11,2,6.73,clear sky
449,Novikovo,RU,51.1537,37.8879,40.46,61,50,3.13,scattered clouds
450,Conselheiro Pena,BR,-19.1722,-41.4722,74.53,72,55,3.18,broken clouds
451,Kulhudhuffushi,MV,6.6221,73.07,84.97,75,89,13.85,overcast clouds
452,Izhma,RU,65.0083,53.9113,21.79,94,83,4.36,broken clouds
453,Quelimane,MZ,-17.8786,36.8883,73.35,88,40,2.3,scattered clouds
454,Sesimbra,PT,38.4445,-9.1015,59.27,84,1,14.2,clear sky
455,Arys,KZ,42.4252,68.795,66.85,40,62,9.64,broken clouds
456,Baykit,RU,61.67,96.37,29.88,78,77,3.42,broken clouds
457,Beringovskiy,RU,63.05,179.3167,18.88,76,64,15.61,broken clouds
458,Pirojpur,BD,22.5667,89.9833,79.95,82,81,3.78,broken clouds
459,Sangar,RU,63.9242,127.4739,34.92,87,100,17.4,snow
460,Lebu,CL,-37.6167,-73.65,52.54,90,13,14.65,few clouds
461,Sitka,US,57.0531,-135.33,46.29,76,100,18.41,light rain
462,Atbasar,KZ,51.8,68.3333,44.89,80,45,10.13,scattered clouds
463,Vanimo,PG,-2.6741,141.3028,80.08,88,98,7.85,overcast clouds
464,Faanui,PF,-16.4833,-151.75,81.21,72,18,9.42,few clouds
465,Broome,US,42.2506,-75.833,57.97,56,100,9.22,overcast clouds
466,Gvarv,NO,59.3875,9.1737,45.59,71,75,3.62,broken clouds
467,Turkan,AZ,40.3639,50.215,57.38,82,0,18.41,clear sky
468,Eyl,SO,7.9803,49.8164,83.05,75,100,7.31,light rain
469,Mahibadhoo,MV,3.7833,72.9667,84.96,75,99,19.64,overcast clouds
470,Gizo,SB,-8.103,156.8419,84.43,69,23,3.2,few clouds
471,Mackay,AU,-21.15,149.2,77.68,78,40,16.11,scattered clouds
472,North Bend,US,43.4065,-124.2243,68.23,81,0,10.36,clear sky
473,Burnie,AU,-41.0667,145.9167,61.95,79,98,12.62,overcast clouds
474,Prachuap Khiri Khan,TH,12.2167,99.75,81.68,83,100,2.73,overcast clouds
475,Cangzhou,CN,38.3167,116.8667,64.38,33,4,5.32,clear sky
476,Anadyr,RU,64.75,177.4833,23.5,79,0,8.95,clear sky
477,Lodja,CD,-3.4833,23.4333,65.64,99,100,1.81,overcast clouds
478,Florida,US,28.7505,-82.5001,80.58,70,0,0.0,clear sky
479,Yurga,RU,55.7231,84.8861,41.9,86,100,3.83,moderate rain
480,Noumea,NC,-22.2763,166.4572,85.98,99,51,13.35,broken clouds
481,Verkhnevilyuysk,RU,63.4453,120.3167,23.97,68,100,13.53,overcast clouds
482,Ostrovnoy,RU,68.0531,39.5131,14.77,93,51,8.48,broken clouds
483,Alice Springs,AU,-23.7,133.8833,62.15,51,34,10.36,scattered clouds
484,Buin,CL,-33.7333,-70.75,62.74,55,1,1.99,clear sky
485,Shelburne,CA,44.0787,-80.2041,48.96,90,100,9.78,overcast clouds
486,Galveston,US,29.3669,-94.9669,84.31,83,75,17.27,broken clouds
487,Plettenberg Bay,ZA,-34.0527,23.3716,57.58,79,0,2.68,clear sky
488,Kabo,CF,7.6994,18.629,75.51,62,97,4.94,overcast clouds
489,Nouadhibou,MR,20.931,-17.0347,66.18,88,0,12.66,clear sky
490,Bucksport,US,44.5737,-68.7956,50.04,81,91,4.81,overcast clouds
491,Jalu,LY,29.0331,21.5482,77.99,34,99,23.69,overcast clouds
492,Lasa,IT,46.6166,10.7002,49.08,90,85,3.51,overcast clouds
493,Ishinomaki,JP,38.4167,141.3,53.6,64,1,12.44,clear sky
494,Portree,GB,57.4129,-6.1942,45.52,93,87,7.56,overcast clouds
495,Celestun,MX,20.8667,-90.4,82.06,69,54,16.37,broken clouds
496,Maxixe,MZ,-23.8597,35.3472,67.17,86,16,7.29,light rain
497,Kisanga,TZ,-7.4362,37.7034,73.35,85,76,3.49,broken clouds
498,Colares,PT,38.7992,-9.4469,59.29,69,30,24.0,scattered clouds
499,Matara,LK,5.9485,80.5353,78.64,90,95,11.03,overcast clouds
500,Cap Malheureux,MU,-19.9842,57.6142,73.47,81,3,7.38,clear sky
501,Richards Bay,ZA,-28.783,32.0377,61.52,80,0,6.82,clear sky
502,Kampot,KH,10.6167,104.1833,77.05,83,100,3.22,overcast clouds
503,Deputatskiy,RU,69.3,139.9,29.61,79,91,1.01,overcast clouds
504,Pauini,BR,-7.7136,-66.9764,76.82,83,77,1.72,broken clouds
505,Dingle,PH,10.9995,122.6711,82.67,74,99,7.43,overcast clouds
506,Dicabisagan,PH,17.0818,122.4157,82.06,75,93,3.2,overcast clouds
507,Diu,IN,20.7141,70.9822,80.89,91,0,11.43,clear sky
508,Biskamzha,RU,53.4497,89.5272,53.94,54,96,2.13,overcast clouds
509,Riyadh,SA,24.6877,46.7219,80.74,18,41,8.14,scattered clouds
510,Alyangula,AU,-13.8483,136.4192,82.27,78,10,0.0,clear sky
511,Kankan,GN,10.3854,-9.3057,81.3,57,89,4.74,overcast clouds
512,Sumbe,AO,-11.2061,13.8437,76.01,90,7,6.87,clear sky
513,Phan Thiet,VN,10.9333,108.1,80.11,83,98,2.13,overcast clouds
514,Srednekolymsk,RU,67.45,153.6833,32.65,100,100,3.11,overcast clouds
515,Mina,MX,26.0011,-100.5299,90.81,41,56,21.77,broken clouds
516,Lebyazhye,RU,55.2689,66.4947,38.62,91,37,8.16,scattered clouds
517,Camocim,BR,-2.9022,-40.8411,77.31,89,85,10.13,overcast clouds
518,Xichang,CN,27.8964,102.2634,48.69,76,100,3.24,overcast clouds
519,San Cristobal,VE,7.7669,-72.225,78.98,94,74,3.04,broken clouds
520,Palmer,US,42.1584,-72.3287,66.61,29,20,6.91,few clouds
521,Romani,RO,46.7833,26.6833,51.53,78,67,2.53,light rain
522,Annan,GB,54.9884,-3.2565,51.98,93,100,3.58,overcast clouds
523,Itaporanga,BR,-7.3044,-38.1503,78.03,64,92,5.32,overcast clouds
524,Luderitz,NA,-26.6481,15.1594,71.56,26,0,9.4,clear sky
525,Neuquen,AR,-38.9516,-68.0591,55.29,58,0,2.3,clear sky
526,Mpulungu,ZM,-8.7623,31.1141,70.03,80,57,7.25,broken clouds
527,Remontnoye,RU,46.5614,43.6501,51.31,59,100,16.35,overcast clouds
528,Margate,GB,51.3813,1.3862,51.69,70,100,2.93,overcast clouds
529,Kesan,TR,40.8558,26.6303,45.28,95,15,7.72,few clouds
530,Brae,GB,60.3964,-1.353,47.55,92,100,7.02,overcast clouds
531,Vidim,RU,56.4088,103.1106,35.15,85,100,8.1,overcast clouds
532,Vostok,RU,46.4856,135.8833,38.7,64,99,4.45,overcast clouds
533,Rio Grande,BR,-32.035,-52.0986,52.95,76,0,10.09,clear sky
534,Oksfjord,NO,70.2396,22.3479,33.01,89,96,6.62,light snow
535,Jertih,MY,5.7336,102.4897,78.55,90,100,2.82,overcast clouds
536,Raha,IN,26.2333,92.5167,72.0,84,99,5.28,overcast clouds
537,Mezen,RU,65.8522,44.24,20.89,96,61,5.39,broken clouds
538,Sao Bernardo,BR,-3.3614,-42.4178,74.98,95,85,3.2,light rain
539,Chepareria,KE,1.3077,35.2039,60.44,90,96,3.11,light rain
540,Thinadhoo,MV,0.5333,72.9333,84.94,75,95,18.43,overcast clouds
541,Aswan,EG,24.0934,32.907,83.5,14,0,8.05,clear sky
542,Rosetown,CA,51.5501,-108.0014,58.66,28,97,8.05,overcast clouds
543,Merauke,ID,-8.4667,140.3333,79.02,89,96,11.79,overcast clouds
544,Dire,ML,12.2833,-10.9667,89.44,33,72,2.33,broken clouds
545,Rabo De Peixe,PT,37.8,-25.5833,65.28,74,75,6.91,broken clouds
546,Presidencia Roque Saenz Pena,AR,-26.7852,-60.4388,59.95,95,99,6.31,overcast clouds
547,Nayoro,JP,44.3506,142.4578,42.64,91,100,2.04,overcast clouds
548,Zhengjiatun,CN,43.5064,123.5064,48.13,51,7,4.83,clear sky
549,Homer,US,59.6425,-151.5483,46.29,71,100,20.71,overcast clouds
550,Port Macquarie,AU,-31.4333,152.9167,69.89,66,90,2.86,overcast clouds
551,Elat,IL,29.5581,34.9482,75.04,23,0,6.91,clear sky
552,Jamtara,IN,23.95,86.8,77.83,81,24,5.44,few clouds
553,Dongli,CN,23.5656,116.8194,62.58,100,100,8.95,overcast clouds
554,Qixia,CN,37.2975,120.8256,60.33,26,44,7.52,scattered clouds
555,Estevan,CA,49.1334,-102.9842,57.54,35,0,14.97,clear sky
556,Mundra,IN,22.85,69.7333,81.95,82,1,11.18,clear sky
557,Festus,US,38.2206,-90.396,73.31,61,31,8.88,scattered clouds
558,Ariquemes,BR,-9.9133,-63.0408,74.43,92,61,2.35,broken clouds
559,Qandala,SO,11.472,49.8728,85.95,70,2,3.98,clear sky
560,Buriti Alegre,BR,-18.14,-49.0403,67.62,42,2,2.62,clear sky
561,Mandera,KE,3.9366,41.867,75.56,79,100,10.89,overcast clouds
562,George,ZA,-33.963,22.4617,49.55,93,0,3.44,clear sky
563,Weatherford,US,32.7593,-97.7972,82.06,72,100,14.03,overcast clouds
564,Asau,RO,46.4333,26.4,43.72,100,68,2.73,broken clouds
565,Inirida,CO,3.8653,-67.9239,73.65,97,38,1.9,scattered clouds
566,Smidovich,RU,48.6,133.8167,44.04,59,100,6.6,overcast clouds
567,Ust-Maya,RU,60.4167,134.5333,42.26,69,63,12.33,broken clouds
568,Moindou,NC,-21.6924,165.677,80.29,72,4,4.54,clear sky
569,Shchigry,RU,51.8755,36.9043,35.42,62,31,3.8,scattered clouds
570,Aykhal,RU,66.0,111.5,18.43,84,18,11.52,few clouds
571,Pontian Kecil,MY,1.4801,103.3899,75.52,86,100,6.24,overcast clouds
572,Kuliyapitiya,LK,7.4688,80.0401,83.88,93,95,3.78,overcast clouds
573,Sal Rei,CV,16.1833,-22.9167,70.43,82,0,14.09,clear sky
574,Williston,US,48.147,-103.618,59.81,36,90,4.0,overcast clouds
575,Kaabong,UG,3.4836,34.1492,63.18,93,66,4.61,moderate rain
576,Olavarria,AR,-36.8927,-60.3225,53.02,68,38,9.82,scattered clouds
577,Eregli,TR,37.5133,34.0467,49.59,86,9,5.3,clear sky
578,Kindu,CD,-2.95,25.95,69.3,95,100,3.69,overcast clouds
579,Cartagena,CO,10.3997,-75.5144,82.02,83,40,9.22,scattered clouds
580,Dubti,ET,11.7361,41.0853,86.88,45,3,9.06,clear sky
581,Zarubino,RU,42.63,131.0922,44.47,66,66,8.1,broken clouds
582,Alofi,NU,-19.0595,-169.9187,84.09,79,100,8.05,overcast clouds
583,Saravan,AM,39.7196,45.6483,44.71,85,100,6.02,overcast clouds
584,Tornio,FI,65.8481,24.1466,33.82,94,100,7.74,light snow
585,Ossora,RU,59.2353,163.0719,30.54,89,72,3.06,broken clouds
586,Dongsheng,CN,39.8161,109.9776,55.22,16,72,12.82,broken clouds
587,Kolosovka,RU,56.4678,73.611,35.04,99,100,6.15,overcast clouds
588,Porto Walter,BR,-8.2686,-72.7439,78.15,79,88,1.57,overcast clouds
589,Bridlington,GB,54.0831,-0.1919,53.01,93,100,5.21,overcast clouds
590,Otane,NZ,-39.8833,176.6333,63.01,56,90,1.5,overcast clouds
591,Palauig,PH,15.435,119.9045,84.61,64,81,1.81,broken clouds
592,Tura,IN,25.5198,90.2201,69.66,95,98,4.52,overcast clouds
593,Mumbwa,ZM,-14.9783,27.0619,57.18,73,0,5.61,clear sky
594,Kieta,PG,-6.2167,155.6333,85.35,68,96,3.83,overcast clouds
595,Erdenet,MN,49.0333,104.0833,55.4,25,77,3.15,broken clouds
596,Coronado,US,32.6859,-117.1831,72.77,77,100,13.8,overcast clouds
597,Dire Dawa,ET,9.5931,41.8661,74.44,60,95,4.56,overcast clouds
598,Port-Gentil,GA,-0.7193,8.7815,82.36,83,40,9.22,scattered clouds
599,Ouegoa,NC,-20.35,164.4333,81.39,74,22,9.08,few clouds
600,Chekmagush,RU,55.1319,54.6556,32.5,60,1,6.44,clear sky
601,Kalispell,US,48.1958,-114.3129,61.32,42,100,5.75,overcast clouds
602,Balkhash,KZ,46.844,74.9804,63.43,49,100,10.07,overcast clouds
603,Aguascalientes,MX,21.8833,-102.3,85.95,8,75,14.97,broken clouds
604,Juegang,CN,32.3174,121.1855,65.95,64,39,12.15,scattered clouds
605,Banjar,ID,-8.19,114.9675,80.83,82,99,3.56,overcast clouds
606,Kayerkan,RU,69.3497,87.7602,19.53,100,98,11.07,light snow
607,Posse,BR,-14.0931,-46.3694,73.04,46,35,2.19,scattered clouds
608,Sitio Novo Do Tocantins,BR,-5.5183,-47.4611,77.59,71,84,2.59,broken clouds
609,Dakar,SN,14.6937,-17.4441,68.88,100,0,6.91,clear sky
610,Kaspiyskiy,RU,45.3929,47.3707,59.27,58,99,18.61,overcast clouds
611,Fougamou,GA,-1.2154,10.5838,72.75,99,99,1.41,moderate rain
612,Ambulu,ID,-8.345,113.6058,79.05,85,82,2.42,broken clouds
613,Anchorage,US,61.2181,-149.9003,56.41,39,75,18.41,shower rain
614,Dandong,CN,40.1292,124.3947,52.11,41,0,12.1,clear sky
615,Lerik,AZ,38.7726,48.4128,48.92,92,99,2.59,overcast clouds
616,Auray,FR,47.6703,-2.9918,55.74,75,100,10.87,overcast clouds
617,Alghero,IT,40.5589,8.3181,51.89,100,0,1.14,clear sky
618,Uruzgan,AF,32.8333,66.0,68.92,32,100,1.59,overcast clouds
619,Mangrol,IN,21.1167,70.1167,81.77,88,1,9.01,clear sky
620,Bay-Khaak,RU,51.1667,94.5,55.58,32,69,3.47,broken clouds
621,Verkh-Chebula,RU,56.0308,87.6218,42.33,80,100,3.94,overcast clouds
622,Xuddur,SO,4.1213,43.8894,72.21,86,99,10.16,overcast clouds
623,Sernovodskoye,RU,43.3158,45.1637,54.16,90,100,2.98,overcast clouds
624,Kununurra,AU,-15.7667,128.7333,85.98,42,25,11.5,scattered clouds
625,Pangody,RU,65.85,74.4859,18.45,97,100,2.01,overcast clouds
626,Wadi Musa,JO,30.3222,35.4793,56.64,34,2,6.44,clear sky
627,Dubuque,US,42.4833,-90.8668,49.82,69,100,23.02,overcast clouds
628,Suicheng,CN,33.8963,117.9331,61.02,47,0,9.69,clear sky
629,Turan,VN,16.0678,108.2208,76.98,69,75,6.91,broken clouds
630,Pinawa,CA,50.1489,-95.8811,34.59,96,100,11.61,overcast clouds
631,Mahon,ES,39.8885,4.2658,55.96,94,20,4.61,few clouds
632,Manokwari,ID,-0.8667,134.0833,79.56,81,100,2.01,overcast clouds
633,Dudinka,RU,69.4058,86.1778,20.62,96,96,10.38,overcast clouds
634,Nichinan,JP,31.6,131.3667,60.48,59,100,1.32,overcast clouds
635,Omboue,GA,-1.5746,9.2618,78.91,88,94,4.85,light rain
636,Pisco,PE,-13.7,-76.2167,66.25,77,0,17.27,clear sky
637,Praia Da Vitoria,PT,38.7333,-27.0667,62.85,88,75,2.53,broken clouds
638,Tymovskoye,RU,50.8456,142.655,40.03,76,53,5.39,broken clouds
639,Chumikan,RU,54.7183,135.315,32.2,89,94,6.82,overcast clouds
640,Aktash,RU,50.3,87.7333,37.36,42,70,5.88,broken clouds
641,Jasdan,IN,22.0333,71.2,80.89,75,0,14.7,clear sky
642,Hakkari,TR,37.5833,44.1667,44.38,100,75,4.61,light intensity shower rain
643,Cuamba,MZ,-14.8031,36.5372,61.66,93,3,5.75,clear sky
644,Arman,RU,59.7,150.1667,43.02,77,43,4.32,scattered clouds
645,Manuk Mangkaw,PH,4.8,119.85,83.07,78,92,6.11,overcast clouds
646,Pitanga,BR,-24.7572,-51.7614,60.84,95,34,2.51,scattered clouds
647,Kyaikkami,MM,16.08,97.5675,81.86,79,89,1.05,overcast clouds
648,Xining,CN,36.6167,101.7667,37.15,57,1,3.4,clear sky
649,Tsabong,BW,-26.0217,22.401,62.6,37,0,10.16,clear sky
650,Abu Dhabi,AE,24.4667,54.3667,78.96,61,0,6.91,clear sky
651,Progreso,MX,21.2833,-89.6667,87.91,78,8,16.35,clear sky
652,Lons-Le-Saunier,FR,46.75,5.75,46.18,90,32,3.67,scattered clouds
653,Benicarlo,ES,40.4165,0.4271,63.9,72,53,4.92,light rain
654,Santo Antonio Do Ica,BR,-3.1022,-67.9397,73.74,99,92,1.36,overcast clouds
655,Tala,EG,30.6803,30.9429,61.07,73,50,4.23,scattered clouds
656,Missungwi,TZ,-2.85,33.0833,67.73,94,87,5.41,light rain
657,Nautla,MX,20.2167,-96.7833,82.8,79,42,16.46,scattered clouds
658,Velizh,RU,55.6056,31.1967,38.46,70,100,3.36,overcast clouds
659,Acaponeta,MX,22.4964,-105.3594,87.42,28,23,7.09,few clouds
660,Sekoma,BW,-24.4,23.8833,62.37,55,0,10.38,clear sky
661,Ilhabela,BR,-23.7781,-45.3581,73.44,85,14,2.51,few clouds
662,Alberton,CA,46.8168,-64.0654,35.73,97,100,16.24,overcast clouds
663,Chapais,CA,49.7834,-74.8492,55.18,93,66,5.23,broken clouds
664,Tougan,BF,13.0667,-3.0667,90.72,34,88,6.69,overcast clouds
665,Faya,SA,18.3851,42.4509,64.51,54,29,2.89,scattered clouds
666,Porto Torres,IT,40.835,8.3972,51.98,89,7,4.09,clear sky
667,Amapa,BR,1.0,-52.0,72.75,98,97,1.52,overcast clouds
668,Birao,CF,10.2849,22.7882,83.17,32,63,7.65,broken clouds
669,Rusne,LT,55.2964,21.3758,39.97,92,3,5.88,clear sky
670,Uzventis,LT,55.7803,22.6547,41.07,97,39,5.28,scattered clouds
